{"type":"FeatureCollection","features":[{"type":"Feature","properties":{"id":1,"name":"\u5468\u85e5\u5e2b\u85e5\u5c40","postcode":"70169","address":"\u81fa\u5357\u5e02\u6771\u5340\u5d07\u5584\u8def654\u865f","phone":"06-2678421","owner":"\u5468\u73b2\u5a1f","longitude":"120.23107100","latitude":"22.96838200"},"geometry":{"type":"Point","coordinates":[120.231071,22.968382]}},{"type":"Feature","properties":{"id":2,"name":"\u5149\u660e\u5b9c\u5eb7\u4fdd\u5065\u85e5\u5c40","postcode":"70154","address":"\u81fa\u5357\u5e02\u6771\u5340\u5149\u660e\u885736-2\u865f","phone":"06-2376448","owner":"\u6797\u749f\u5bec","longitude":"120.22816000","latitude":"22.99889500"},"geometry":{"type":"Point","coordinates":[120.22816,22.998895]}},{"type":"Feature","properties":{"id":3,"name":"\u9748\u5b89\u85e5\u5c40","postcode":"70167","address":"\u81fa\u5357\u5e02\u6771\u5340\u69ae\u8b7d\u885732\u4e4b2\u865f","phone":"06-2143727","owner":"\u90b1\u6587\u82d3","longitude":"120.21634200","latitude":"22.97418700"},"geometry":{"type":"Point","coordinates":[120.216342,22.974187]}},{"type":"Feature","properties":{"id":4,"name":"\u5df4\u514b\u79ae\u4e2d\u897f\u85e5\u5c40","postcode":"70167","address":"\u81fa\u5357\u5e02\u6771\u5340\u4e2d\u83ef\u6771\u8def\uff13\u6bb5377\u5df78\u865f","phone":"06-3361100","owner":"\u5f35\u6590\u6de8","longitude":"120.22152100","latitude":"22.97337200"},"geometry":{"type":"Point","coordinates":[120.221521,22.973372]}},{"type":"Feature","properties":{"id":5,"name":"\u5b89\u9e97\u5152\u85e5\u5c40\u4ec1\u548c\u5e97","postcode":"70174","address":"\u81fa\u5357\u5e02\u6771\u5340\u4ec1\u548c\u8def105\u4e4b1\u865f","phone":"06-2908000","owner":"\u838a\u9d3b\u658c","longitude":"120.23287600","latitude":"22.97181000"},"geometry":{"type":"Point","coordinates":[120.232876,22.97181]}},{"type":"Feature","properties":{"id":6,"name":"\u61f7\u4ec1\u85e5\u5c40","postcode":"70161","address":"\u81fa\u5357\u5e02\u6771\u5340\u5d07\u5fb7\u8def342\u865f","phone":"06-2694895","owner":"\u8a31\u9032\u8208","longitude":"120.22380600","latitude":"22.97642600"},"geometry":{"type":"Point","coordinates":[120.223806,22.976426]}},{"type":"Feature","properties":{"id":7,"name":"\u9023\u6625\u85e5\u5c40","postcode":"70166","address":"\u81fa\u5357\u5e02\u6771\u5340\u838a\u656c\u8def15\u865f","phone":"06-2083685","owner":"\u9023\u745e\u96f2","longitude":"120.23256800","latitude":"22.99334800"},"geometry":{"type":"Point","coordinates":[120.232568,22.993348]}},{"type":"Feature","properties":{"id":8,"name":"\u7d71\u4e00\u85e5\u5c40","postcode":"70142","address":"\u81fa\u5357\u5e02\u6771\u5340\u6771\u9580\u8def\u4e00\u6bb5291\u865f","phone":"06-2376638","owner":"\u9673\u7005\u4ee3","longitude":"120.21856600","latitude":"22.98682900"},"geometry":{"type":"Point","coordinates":[120.218566,22.986829]}},{"type":"Feature","properties":{"id":9,"name":"\u6649\u5927\u85e5\u5c40","postcode":"70159","address":"\u81fa\u5357\u5e02\u6771\u5340\u6771\u8208\u8def264\u865f","phone":"06-2092580","owner":"\u9ec3\u5927\u6649","longitude":"120.22985500","latitude":"22.99519100"},"geometry":{"type":"Point","coordinates":[120.229855,22.995191]}},{"type":"Feature","properties":{"id":10,"name":"\u7fa4\u5b89\u5065\u4fdd\u85e5\u5c40","postcode":"70157","address":"\u81fa\u5357\u5e02\u6771\u5340\u81ea\u7531\u8def\u4e09\u6bb5151\u3001153\u865f","phone":"06-2690652","owner":"\u9ec3\u82b3\u6021","longitude":"120.23688500","latitude":"22.98302500"},"geometry":{"type":"Point","coordinates":[120.236885,22.983025]}},{"type":"Feature","properties":{"id":11,"name":"\u826f\u6cf0\u85e5\u5c40","postcode":"70174","address":"\u81fa\u5357\u5e02\u6771\u5340\u4ec1\u548c\u8def117\u865f","phone":"06-2676256","owner":"\u8521\u8c50\u9686","longitude":"120.23374000","latitude":"22.97047600"},"geometry":{"type":"Point","coordinates":[120.23374,22.970476]}},{"type":"Feature","properties":{"id":12,"name":"\u8cf4\u85e5\u5c40","postcode":"70149","address":"\u81fa\u5357\u5e02\u6771\u5340\u88d5\u8fb2\u8def621\u5df726-2\u865f","phone":"06-2363738","owner":"\u8cf4\u6b63\u93b0","longitude":"120.23562400","latitude":"22.98915300"},"geometry":{"type":"Point","coordinates":[120.235624,22.989153]}},{"type":"Feature","properties":{"id":13,"name":"\u5927\u5bb6\u85e5\u5c40","postcode":"70150","address":"\u81fa\u5357\u5e02\u6771\u5340\u5927\u540c\u8def\u4e8c\u6bb5175\u865f","phone":"06-2153777","owner":"\u859b\u60e0\u82f1","longitude":"120.21403700","latitude":"22.97682400"},"geometry":{"type":"Point","coordinates":[120.214037,22.976824]}},{"type":"Feature","properties":{"id":14,"name":"\u661f\u5b97\u85e5\u5c40","postcode":"70056","address":"\u81fa\u5357\u5e02\u4e2d\u897f\u5340\u5927\u52c7\u885737\u865f","phone":"06-2223453","owner":"\u4f55\u661f\u5b97","longitude":"120.19421400","latitude":"22.98980300"},"geometry":{"type":"Point","coordinates":[120.194214,22.989803]}},{"type":"Feature","properties":{"id":15,"name":"\u5e9c\u524d\u85e5\u5e2b\u85e5\u5c40","postcode":"70041","address":"\u81fa\u5357\u5e02\u4e2d\u897f\u5340\u5e9c\u524d\u8def\uff11\u6bb5270\u865f","phone":"06-2284411","owner":"\u6797\u6842\u8c9e","longitude":"120.19997100","latitude":"22.99013100"},"geometry":{"type":"Point","coordinates":[120.199971,22.990131]}},{"type":"Feature","properties":{"id":16,"name":"\u694a\u85e5\u5c40","postcode":"70057","address":"\u81fa\u5357\u5e02\u4e2d\u897f\u5340\u897f\u548c\u8def33\u865f","phone":"06-2806353","owner":"\u694a\u52dd\u96c4","longitude":"120.18814900","latitude":"23.00005300"},"geometry":{"type":"Point","coordinates":[120.188149,23.000053]}},{"type":"Feature","properties":{"id":17,"name":"\u5409\u4ec1\u5927\u85e5\u5c40","postcode":"70050","address":"\u81fa\u5357\u5e02\u4e2d\u897f\u5340\u6c11\u6b0a\u8def\u4e8c\u6bb586\u865f","phone":"06-2263777","owner":"\u912d\u671d\u4ec1","longitude":"120.20446300","latitude":"22.99468500"},"geometry":{"type":"Point","coordinates":[120.204463,22.994685]}},{"type":"Feature","properties":{"id":18,"name":"\u4eba\u4eba\u85e5\u5c40","postcode":"70061","address":"\u81fa\u5357\u5e02\u4e2d\u897f\u5340\u548c\u7def\u8def\uff15\u6bb5197\u865f","phone":"06-3583668","owner":"\u7f85\u7a88\u5b89","longitude":"120.18233400","latitude":"23.00493200"},"geometry":{"type":"Point","coordinates":[120.182334,23.004932]}},{"type":"Feature","properties":{"id":19,"name":"\u5e02\u5b89\u85e5\u5e2b\u85e5\u5c40","postcode":"70256","address":"\u81fa\u5357\u5e02\u5357\u5340\u570b\u6c11\u8def142\u865f","phone":"06-2882627","owner":"\u5433\u5fd7\u5f37","longitude":"120.21232700","latitude":"22.96755400"},"geometry":{"type":"Point","coordinates":[120.212327,22.967554]}},{"type":"Feature","properties":{"id":20,"name":"\u6b23\u660c\u85e5\u5c40","postcode":"70257","address":"\u81fa\u5357\u5e02\u5357\u5340\u8208\u5357\u8857115\u865f","phone":"06-2623217","owner":"\u6797\u9686\u660c","longitude":"120.18239800","latitude":"22.92162100"},"geometry":{"type":"Point","coordinates":[120.182398,22.921621]}},{"type":"Feature","properties":{"id":21,"name":"\u88d5\u4ec1\u85e5\u5c40","postcode":"70241","address":"\u81fa\u5357\u5e02\u5357\u5340\u65b0\u8208\u8def194\u865f","phone":"06-2614263","owner":"\u90b1\u6607","longitude":"120.19359400","latitude":"22.97730800"},"geometry":{"type":"Point","coordinates":[120.193594,22.977308]}},{"type":"Feature","properties":{"id":22,"name":"\u5b89\u5fc3\u85e5\u5c40","postcode":"70261","address":"\u81fa\u5357\u5e02\u5357\u5340\u559c\u6a39\u8def151\u5df733\u865f","phone":"06-2622570","owner":"\u8521\u69ae\u5d07","longitude":"120.17999800","latitude":"22.94098700"},"geometry":{"type":"Point","coordinates":[120.179998,22.940987]}},{"type":"Feature","properties":{"id":23,"name":"\u7063\u91cc\u85e5\u5c40","postcode":"70258","address":"\u81fa\u5357\u5e02\u5357\u5340\u7063\u88e1\u8def261\u865f","phone":"06-2625620","owner":"\u5f90\u78a7\u79c0","longitude":"120.18228400","latitude":"22.92681900"},"geometry":{"type":"Point","coordinates":[120.182284,22.926819]}},{"type":"Feature","properties":{"id":24,"name":"\u4fe1\u5fc3\u85e5\u5c40","postcode":"70453","address":"\u81fa\u5357\u5e02\u5317\u5340\u516c\u5712\u8def546\u865f","phone":"06-2822209","owner":"\u65b9\u4fca\u5091","longitude":"120.21012100","latitude":"23.00693400"},"geometry":{"type":"Point","coordinates":[120.210121,23.006934]}},{"type":"Feature","properties":{"id":25,"name":"\u5168\u4e00\u85e5\u5c40","postcode":"70454","address":"\u81fa\u5357\u5e02\u5317\u5340\u548c\u7def\u8def\u56db\u6bb595\u5df738\u865f","phone":"06-2580021","owner":"\u53f2\u5b97\u826f","longitude":"120.19122200","latitude":"23.00760000"},"geometry":{"type":"Point","coordinates":[120.191222,23.0076]}},{"type":"Feature","properties":{"id":26,"name":"\u5065\u76df\u85e5\u5c40","postcode":"704027","address":"\u81fa\u5357\u5e02\u5317\u5340\u5317\u5b89\u8def\uff11\u6bb5206\u865f","phone":"06-2523988","owner":"\u5433\u5efa\u80fd","longitude":"120.20818300","latitude":"23.01823200"},"geometry":{"type":"Point","coordinates":[120.208183,23.018232]}},{"type":"Feature","properties":{"id":27,"name":"\u65b0\u5411\u751f\u85e5\u5c40","postcode":"70449","address":"\u81fa\u5357\u5e02\u5317\u5340\u5317\u9580\u8def\uff12\u6bb5547\u5df78\u865f","phone":"06-2523013","owner":"\u5433\u96c5\u60e0","longitude":"120.21599200","latitude":"23.01085200"},"geometry":{"type":"Point","coordinates":[120.215992,23.010852]}},{"type":"Feature","properties":{"id":28,"name":"\u5609\u6d32\u85e5\u5c40","postcode":"70454","address":"\u81fa\u5357\u5e02\u5317\u5340\u6587\u8ce2\u8def240\u865f","phone":"06-2583180","owner":"\u9673\u5ba3\u592b","longitude":"120.19387200","latitude":"23.00428200"},"geometry":{"type":"Point","coordinates":[120.193872,23.004282]}},{"type":"Feature","properties":{"id":29,"name":"\u4f73\u611b\u85e5\u5c40","postcode":"70465","address":"\u81fa\u5357\u5e02\u5317\u5340\u897f\u9580\u8def\uff14\u6bb5341\u5df72\u865f","phone":"06-2516697","owner":"\u9673\u7687\u5b87","longitude":"120.20973400","latitude":"23.01531900"},"geometry":{"type":"Point","coordinates":[120.209734,23.015319]}},{"type":"Feature","properties":{"id":30,"name":"\u6a02\u68ee\u85e5\u5c40","postcode":"70465","address":"\u81fa\u5357\u5e02\u5317\u5340\u548c\u7def\u8def\uff12\u6bb5336\u865f","phone":"06-2511338","owner":"\u6234\u5f70\u5ef6","longitude":"120.20482500","latitude":"23.01258700"},"geometry":{"type":"Point","coordinates":[120.204825,23.012587]}},{"type":"Feature","properties":{"id":31,"name":"\u5b8f\u5409\u85e5\u5c40","postcode":"70464","address":"\u81fa\u5357\u5e02\u5317\u5340\u5927\u8208\u8857224\u865f","phone":"06-2589692","owner":"\u8b1d\u5b8f\u4fe1","longitude":"120.18789000","latitude":"23.01085000"},"geometry":{"type":"Point","coordinates":[120.18789,23.01085]}},{"type":"Feature","properties":{"id":32,"name":"\u516c\u5712\u5e97\u83c1\u5b89\u85e5\u5c40","postcode":"70445","address":"\u81fa\u5357\u5e02\u5317\u5340\u516c\u5712\u8def611\u865f","phone":"06-2834488","owner":"\u9b4f\u797a\u5cef","longitude":"120.21315300","latitude":"23.01501400"},"geometry":{"type":"Point","coordinates":[120.213153,23.015014]}},{"type":"Feature","properties":{"id":33,"name":"\u773e\u5b89\u85e5\u5c40","postcode":"70451","address":"\u81fa\u5357\u5e02\u5317\u5340\u6587\u8ce2\u8def1034\u865f","phone":"06-2588339","owner":"\u8607\u7165\u4ead","longitude":"120.19394300","latitude":"23.01421600"},"geometry":{"type":"Point","coordinates":[120.193943,23.014216]}},{"type":"Feature","properties":{"id":34,"name":"\u5e73\u901a\u85e5\u5c40","postcode":"70844","address":"\u81fa\u5357\u5e02\u5b89\u5e73\u5340\u5efa\u5e73\u4e94\u885726\u865f","phone":"06-2974851","owner":"\u4e01\u7389\u6885","longitude":"120.18140500","latitude":"22.98751800"},"geometry":{"type":"Point","coordinates":[120.181405,22.987518]}},{"type":"Feature","properties":{"id":35,"name":"\u5168\u5bb6\u85e5\u5c40","postcode":"70846","address":"\u81fa\u5357\u5e02\u5b89\u5e73\u5340\u83ef\u5e73\u8def170\u865f","phone":"06-2939000","owner":"\u5eb7\u79c0\u83ef","longitude":"120.17485400","latitude":"22.98882100"},"geometry":{"type":"Point","coordinates":[120.174854,22.988821]}},{"type":"Feature","properties":{"id":36,"name":"\u4eba\u4ec1\u85e5\u5c40","postcode":"70842","address":"\u81fa\u5357\u5e02\u5b89\u5e73\u5340\u6176\u5e73\u8def281\u865f","phone":"06-2998667","owner":"\u7f85\u4e39\u4f36","longitude":"120.17628100","latitude":"22.99668000"},"geometry":{"type":"Point","coordinates":[120.176281,22.99668]}},{"type":"Feature","properties":{"id":37,"name":"\u8056\u6069\u85e5\u5c40","postcode":"70970","address":"\u81fa\u5357\u5e02\u6d77\u4f43\u8def\uff11\u6bb5252\u865f1\u6a13","phone":"06-2595462","owner":"\u6797\u4ed9\u990a","longitude":"120.19155600","latitude":"23.02552400"},"geometry":{"type":"Point","coordinates":[120.191556,23.025524]}},{"type":"Feature","properties":{"id":38,"name":"\u6d82\u9038\u6b0a\u85e5\u5e2b\u85e5\u5c40","postcode":"70968","address":"\u81fa\u5357\u5e02\u5b89\u5357\u5340\u9577\u6eaa\u8857\u4e00\u6bb5314\u865f","phone":"06-2560583","owner":"\u6d82\u9038\u6b0a","longitude":"120.20728200","latitude":"23.03890200"},"geometry":{"type":"Point","coordinates":[120.207282,23.038902]}},{"type":"Feature","properties":{"id":39,"name":"\u5efa\u58fd\u85e5\u5c40","postcode":"70953","address":"\u81fa\u5357\u5e02\u5b89\u5357\u5340\u6d77\u4f43\u8def\u4e8c\u6bb5572\u865f","phone":"06-2555388","owner":"\u66fe\u7e93\u9594","longitude":"120.18739900","latitude":"23.04220700"},"geometry":{"type":"Point","coordinates":[120.187399,23.042207]}},{"type":"Feature","properties":{"id":40,"name":"\u5b9c\u5eb7\u5b89\u548c\u85e5\u5c40","postcode":"70941","address":"\u81fa\u5357\u5e02\u5b89\u5357\u5340\u5b89\u548c\u8def\uff11\u6bb568\u865f1\u6a13","phone":"06-2521250","owner":"\u8d99\u7acb\u7965","longitude":"120.21512100","latitude":"23.02730400"},"geometry":{"type":"Point","coordinates":[120.215121,23.027304]}},{"type":"Feature","properties":{"id":41,"name":"\u5609\u5ead\u85e5\u5c40","postcode":"70950","address":"\u81fa\u5357\u5e02\u5b89\u5357\u5340\u570b\u5b89\u8857118\u865f","phone":"06-2581618","owner":"\u8521\u54e1\u6708","longitude":"120.18870600","latitude":"23.02240300"},"geometry":{"type":"Point","coordinates":[120.188706,23.022403]}},{"type":"Feature","properties":{"id":42,"name":"\u5b88\u5229\u85e5\u5c40","postcode":"70969","address":"\u81fa\u5357\u5e02\u5b89\u5357\u5340\u5b89\u548c\u8def\u56db\u6bb5616\u865f","phone":"06-3559347","owner":"\u856d\u8a13\u6d32","longitude":"120.21887800","latitude":"23.06308900"},"geometry":{"type":"Point","coordinates":[120.218878,23.063089]}},{"type":"Feature","properties":{"id":43,"name":"\u4f73\u5fb7\u85e5\u5c40*","postcode":"71748","address":"\u81fa\u5357\u5e02\u4ec1\u5fb7\u5340\u5fb7\u7cd6\u8def470\u865f","phone":"06-2796767","owner":"\u5433\u79be\u4e2d","longitude":"120.25181900","latitude":"22.95139100"},"geometry":{"type":"Point","coordinates":[120.251819,22.951391]}},{"type":"Feature","properties":{"id":44,"name":"\u4fe1\u4ec1\u85e5\u5c40","postcode":"71057","address":"\u81fa\u5357\u5e02\u6c38\u5eb7\u5340\u4e2d\u83ef\u897f\u8857149\u865f","phone":"06-2337755","owner":"\u99ae\u6c34\u6e90","longitude":"120.22571100","latitude":"23.01580800"},"geometry":{"type":"Point","coordinates":[120.225711,23.015808]}},{"type":"Feature","properties":{"id":45,"name":"\u6649\u5927\u85e5\u5c40\u5fa9\u570b\u5e97","postcode":"71085","address":"\u81fa\u5357\u5e02\u6c38\u5eb7\u5340\u5fa9\u570b\u4e00\u8def582\u4e4b1\u865f","phone":"06-2025309","owner":"\u694a\u6c38\u9054","longitude":"120.24375800","latitude":"23.01671400"},"geometry":{"type":"Point","coordinates":[120.243758,23.016714]}},{"type":"Feature","properties":{"id":46,"name":"\u6fdf\u5eb7\u85e5\u5e2b\u85e5\u5c40","postcode":"71084","address":"\u81fa\u5357\u5e02\u6c38\u5eb7\u5340\u52dd\u5b78\u8def281\u865f","phone":"06-3122057","owner":"\u8607\u6587\u5fd7","longitude":"120.23094300","latitude":"23.00771900"},"geometry":{"type":"Point","coordinates":[120.230943,23.007719]}},{"type":"Feature","properties":{"id":47,"name":"\u5b89\u5b89\u85e5\u5c40\u9686\u7530\u5e97","postcode":"72041","address":"\u81fa\u5357\u5e02\u5b98\u7530\u5340\u4e2d\u5c71\u8def\uff11\u6bb515\u865f","phone":"06-5795705","owner":"\u5f90\u73ee\u5a1f","longitude":"120.31877700","latitude":"23.19256500"},"geometry":{"type":"Point","coordinates":[120.318777,23.192565]}},{"type":"Feature","properties":{"id":48,"name":"\u559c\u6a02\u85e5\u5c40","postcode":"71146","address":"\u81fa\u5357\u5e02\u6b78\u4ec1\u5340\u4e2d\u6b63\u5357\u8def\uff11\u6bb5114\u865f1\u6a13","phone":"06-2305101","owner":"\u5f35\u9cf3\u6885","longitude":"120.29301000","latitude":"22.96419300"},"geometry":{"type":"Point","coordinates":[120.29301,22.964193]}},{"type":"Feature","properties":{"id":49,"name":"\u4e1e\u529f\u85e5\u5c40","postcode":"70050","address":"\u81fa\u5357\u5e02\u4e2d\u897f\u5340\u6210\u529f\u8def31\u865f","phone":"06-2287641","owner":"\u674e\u5b63\u84c9","longitude":"120.20949000","latitude":"22.99746800"},"geometry":{"type":"Point","coordinates":[120.20949,22.997468]}},{"type":"Feature","properties":{"id":50,"name":"\u5eb7\u5bcc\u806f\u5408\u85e5\u5c40","postcode":"70845","address":"\u81fa\u5357\u5e02\u5b89\u5e73\u5340\u83ef\u5e73\u8def652\u865f","phone":"06-2971960","owner":"\u6797\u5a01\u6210","longitude":"120.17590400","latitude":"22.99575400"},"geometry":{"type":"Point","coordinates":[120.175904,22.995754]}},{"type":"Feature","properties":{"id":51,"name":"\u4f51\u4e1e\u85e5\u5c40","postcode":"70155","address":"\u81fa\u5357\u5e02\u6771\u5340\u4e2d\u83ef\u6771\u8def\u4e8c\u6bb5129\u865f","phone":"06-2902709","owner":"\u9673\u662d\u4f51","longitude":"120.23332200","latitude":"22.98544600"},"geometry":{"type":"Point","coordinates":[120.233322,22.985446]}},{"type":"Feature","properties":{"id":52,"name":"\u83ef\u8208\u85e5\u5c40","postcode":"70169","address":"\u81fa\u5357\u5e02\u6771\u5340\u5d07\u5584\u8def562\u865f","phone":"06-2683757","owner":"\u4f55\u8ce2\u8302","longitude":"120.23019800","latitude":"22.97075600"},"geometry":{"type":"Point","coordinates":[120.230198,22.970756]}},{"type":"Feature","properties":{"id":53,"name":"\u5b87\u5eb7\u85e5\u5c40","postcode":"74191","address":"\u81fa\u5357\u5e02\u5584\u5316\u5340\u84ee\u6f6d\u5357\u8857150\u865f","phone":"06-5830963","owner":"\u912d\u80b2\u99d6","longitude":"120.30772300","latitude":"23.11199200"},"geometry":{"type":"Point","coordinates":[120.307723,23.111992]}},{"type":"Feature","properties":{"id":54,"name":"\u6085\u6a59\u6b78\u4ec1\u85e5\u5c40","postcode":"71143","address":"\u81fa\u5357\u5e02\u6b78\u4ec1\u5340\u5927\u901a\u8def43\u865f","phone":"06-2396660","owner":"\u4f55\u5b5f\u51fd","longitude":"120.29597900","latitude":"22.96760300"},"geometry":{"type":"Point","coordinates":[120.295979,22.967603]}}]}